[
  {
    "city": "Tokyo",
    "city_ascii": "Tokyo",
    "lat": "35.6897",
    "lng": "139.6922",
    "country": "Japan",
    "iso2": "JP",
    "iso3": "JPN",
    "admin_name": "Tōkyō",
    "capital": "primary",
    "population": "37732000",
    "id": "1392685764"
  },
  {
    "city": "Jakarta",
    "city_ascii": "Jakarta",
    "lat": "-6.1750",
    "lng": "106.8275",
    "country": "Indonesia",
    "iso2": "ID",
    "iso3": "IDN",
    "admin_name": "Jakarta",
    "capital": "primary",
    "population": "33756000",
    "id": "1360771077"
  },

  {
    "city": "Delhi",
    "city_ascii": "Delhi",
    "lat": "28.6100",
    "lng": "77.2300",
    "country": "India",
    "iso2": "IN",
    "iso3": "IND",
    "admin_name": "Delhi",
    "capital": "admin",
    "population": "32226000",
    "id": "1356872604"
  },
  {
    "city": "Guangzhou",
    "city_ascii": "Guangzhou",
    "lat": "23.1300",
    "lng": "113.2600",
    "country": "China",
    "iso2": "CN",
    "iso3": "CHN",
    "admin_name": "Guangdong",
    "capital": "admin",
    "population": "26940000",
    "id": "1156237133"
  },
  {
    "city": "Manila",
    "city_ascii": "Manila",
    "lat": "14.5958",
    "lng": "120.9772",
    "country": "Philippines",
    "iso2": "PH",
    "iso3": "PHL",
    "admin_name": "Manila",
    "capital": "primary",
    "population": "24922000",
    "id": "1608618140"
  },
  {
    "city": "São Paulo",
    "city_ascii": "Sao Paulo",
    "lat": "-23.5500",
    "lng": "-46.6333",
    "country": "Brazil",
    "iso2": "BR",
    "iso3": "BRA",
    "admin_name": "São Paulo",
    "capital": "admin",
    "population": "23086000",
    "id": "1076532519"
  },
  {
    "city": "Seoul",
    "city_ascii": "Seoul",
    "lat": "37.5600",
    "lng": "126.9900",
    "country": "Korea, South",
    "iso2": "KR",
    "iso3": "KOR",
    "admin_name": "Seoul",
    "capital": "primary",
    "population": "23016000",
    "id": "1410836482"
  },
  {
    "city": "Mexico City",
    "city_ascii": "Mexico City",
    "lat": "19.4333",
    "lng": "-99.1333",
    "country": "Mexico",
    "iso2": "MX",
    "iso3": "MEX",
    "admin_name": "Ciudad de México",
    "capital": "primary",
    "population": "21804000",
    "id": "1484247881"
  },
  {
    "city": "Cairo",
    "city_ascii": "Cairo",
    "lat": "30.0444",
    "lng": "31.2358",
    "country": "Egypt",
    "iso2": "EG",
    "iso3": "EGY",
    "admin_name": "Al Qāhirah",
    "capital": "primary",
    "population": "20296000",
    "id": "1818253931"
  },
  {
    "city": "New York",
    "city_ascii": "New York",
    "lat": "40.6943",
    "lng": "-73.9249",
    "country": "United States",
    "iso2": "US",
    "iso3": "USA",
    "admin_name": "New York",
    "capital": "",
    "population": "18908608",
    "id": "1840034016"
  },
  {
    "city": "Los Angeles",
    "city_ascii": "Los Angeles",
    "lat": "34.0549",
    "lng": "-118.2426",
    "country": "United States",
    "iso2": "US",
    "iso3": "USA",
    "admin_name": "Los Angeles",
    "capital": "",
    "id": "1840034017"
  },
  {
    "city": "Dhaka",
    "city_ascii": "Dhaka",
    "lat": "23.7639",
    "lng": "90.3889",
    "country": "Bangladesh",
    "iso2": "BD",
    "iso3": "BGD",
    "admin_name": "Dhaka",
    "capital": "primary",
    "population": "18627000",
    "id": "1050529279"
  },
  {
    "city": "Bangkok",
    "city_ascii": "Bangkok",
    "lat": "13.7525",
    "lng": "100.4942",
    "country": "Thailand",
    "iso2": "TH",
    "iso3": "THA",
    "admin_name": "Krung Thep Maha Nakhon",
    "capital": "primary",
    "population": "18007000",
    "id": "1764068610"
  },
  {
    "city": "Moscow",
    "city_ascii": "Moscow",
    "lat": "55.7558",
    "lng": "37.6172",
    "country": "Russia",
    "iso2": "RU",
    "iso3": "RUS",
    "admin_name": "Moskva",
    "capital": "primary",
    "population": "17332000",
    "id": "1643318494"
  },
  {
    "city": "Buenos Aires",
    "city_ascii": "Buenos Aires",
    "lat": "-34.6033",
    "lng": "-58.3817",
    "country": "Argentina",
    "iso2": "AR",
    "iso3": "ARG",
    "admin_name": "Buenos Aires, Ciudad Autónoma de",
    "capital": "primary",
    "population": "16710000",
    "id": "1032717330"
  },
  {
    "city": "Lagos",
    "city_ascii": "Lagos",
    "lat": "6.4550",
    "lng": "3.3841",
    "country": "Nigeria",
    "iso2": "NG",
    "iso3": "NGA",
    "admin_name": "Lagos",
    "capital": "minor",
    "population": "16637000",
    "id": "1566593751"
  },
  {
    "city": "Istanbul",
    "city_ascii": "Istanbul",
    "lat": "41.0136",
    "lng": "28.9550",
    "country": "Turkey",
    "iso2": "TR",
    "iso3": "TUR",
    "admin_name": "İstanbul",
    "capital": "admin",
    "population": "16079000",
    "id": "1792756324"
  },
  {
    "city": "Karachi",
    "city_ascii": "Karachi",
    "lat": "24.8600",
    "lng": "67.0100",
    "country": "Pakistan",
    "iso2": "PK",
    "iso3": "PAK",
    "admin_name": "Sindh",
    "capital": "admin",
    "population": "15738000",
    "id": "1586129469"
  },
  {
    "city": "Ho Chi Minh City",
    "city_ascii": "Ho Chi Minh City",
    "lat": "10.7756",
    "lng": "106.7019",
    "country": "Vietnam",
    "iso2": "VN",
    "iso3": "VNM",
    "admin_name": "Hồ Chí Minh",
    "capital": "admin",
    "population": "15136000",
    "id": "1704774326"
  },
  {
    "city": "Tehran",
    "city_ascii": "Tehran",
    "lat": "35.6892",
    "lng": "51.3889",
    "country": "Iran",
    "iso2": "IR",
    "iso3": "IRN",
    "admin_name": "Tehrān",
    "capital": "primary",
    "population": "14148000",
    "id": "1364305026"
  },
  {
    "city": "Kinshasa",
    "city_ascii": "Kinshasa",
    "lat": "-4.3219",
    "lng": "15.3119",
    "country": "Congo (Kinshasa)",
    "iso2": "CD",
    "iso3": "COD",
    "admin_name": "Kinshasa",
    "capital": "primary",
    "population": "12836000",
    "id": "1180000363"
  },
  {
    "city": "London",
    "city_ascii": "London",
    "lat": "51.5072",
    "lng": "-0.1275",
    "country": "United Kingdom",
    "iso2": "GB",
    "iso3": "GBR",
    "admin_name": "London, City of",
    "capital": "primary",
    "population": "11262000",
    "id": "1826645935"
  },
  {
    "city": "Paris",
    "city_ascii": "Paris",
    "lat": "48.8567",
    "lng": "2.3522",
    "country": "France",
    "iso2": "FR",
    "iso3": "FRA",
    "admin_name": "Île-de-France",
    "capital": "primary",
    "population": "11060000",
    "id": "1250015082"
  },
  {
    "city": "Lima",
    "city_ascii": "Lima",
    "lat": "-12.0600",
    "lng": "-77.0375",
    "country": "Peru",
    "iso2": "PE",
    "iso3": "PER",
    "admin_name": "Lima",
    "capital": "primary",
    "population": "10320000",
    "id": "1604728603"
  },
  {
    "city": "Luanda",
    "city_ascii": "Luanda",
    "lat": "-8.8383",
    "lng": "13.2344",
    "country": "Angola",
    "iso2": "AO",
    "iso3": "AGO",
    "admin_name": "Luanda",
    "capital": "primary",
    "population": "9051000",
    "id": "1024949724"
  },
  {
    "city": "Kuala Lumpur",
    "city_ascii": "Kuala Lumpur",
    "lat": "3.1478",
    "lng": "101.6953",
    "country": "Malaysia",
    "iso2": "MY",
    "iso3": "MYS",
    "admin_name": "Kuala Lumpur",
    "capital": "primary",
    "population": "8911000",
    "id": "1458988644"
  },
  {
    "city": "Johannesburg",
    "city_ascii": "Johannesburg",
    "lat": "-26.2044",
    "lng": "28.0456",
    "country": "South Africa",
    "iso2": "ZA",
    "iso3": "ZAF",
    "admin_name": "Gauteng",
    "capital": "admin",
    "population": "8500000",
    "id": "1710550792"
  },
  {
    "city": "Bogotá",
    "city_ascii": "Bogota",
    "lat": "4.7111",
    "lng": "-74.0722",
    "country": "Colombia",
    "iso2": "CO",
    "iso3": "COL",
    "admin_name": "Bogotá",
    "capital": "primary",
    "population": "7968095",
    "id": "1170483426"
  },
  {
    "city": "Dar es Salaam",
    "city_ascii": "Dar es Salaam",
    "lat": "-6.8161",
    "lng": "39.2803",
    "country": "Tanzania",
    "iso2": "TZ",
    "iso3": "TZA",
    "admin_name": "Dar es Salaam",
    "capital": "admin",
    "population": "7962000",
    "id": "1834843853"
  },
  {
    "city": "Khartoum",
    "city_ascii": "Khartoum",
    "lat": "15.6000",
    "lng": "32.5000",
    "country": "Sudan",
    "iso2": "SD",
    "iso3": "SDN",
    "admin_name": "Khartoum",
    "capital": "primary",
    "population": "7869000",
    "id": "1729268475"
  },
  {
    "city": "Hong Kong",
    "city_ascii": "Hong Kong",
    "lat": "22.3000",
    "lng": "114.2000",
    "country": "Hong Kong",
    "iso2": "HK",
    "iso3": "HKG",
    "admin_name": "",
    "capital": "primary",
    "population": "7450000",
    "id": "1344982653"
  },
  {
    "city": "Riyadh",
    "city_ascii": "Riyadh",
    "lat": "24.6333",
    "lng": "46.7167",
    "country": "Saudi Arabia",
    "iso2": "SA",
    "iso3": "SAU",
    "admin_name": "Ar Riyāḑ",
    "capital": "primary",
    "population": "7237000",
    "id": "1682999334"
  },
  {
    "city": "Santiago",
    "city_ascii": "Santiago",
    "lat": "-33.4372",
    "lng": "-70.6506",
    "country": "Chile",
    "iso2": "CL",
    "iso3": "CHL",
    "admin_name": "Región Metropolitana",
    "capital": "primary",
    "population": "7171000",
    "id": "1152554349"
  },
  {
    "city": "Madrid",
    "city_ascii": "Madrid",
    "lat": "40.4169",
    "lng": "-3.7033",
    "country": "Spain",
    "iso2": "ES",
    "iso3": "ESP",
    "admin_name": "Madrid",
    "capital": "primary",
    "population": "6211000",
    "id": "1724616994"
  },
  {
    "city": "Baghdad",
    "city_ascii": "Baghdad",
    "lat": "33.3153",
    "lng": "44.3661",
    "country": "Iraq",
    "iso2": "IQ",
    "iso3": "IRQ",
    "admin_name": "Baghdād",
    "capital": "primary",
    "population": "6183000",
    "id": "1368596238"
  },
  {
    "city": "Singapore",
    "city_ascii": "Singapore",
    "lat": "1.3000",
    "lng": "103.8000",
    "country": "Singapore",
    "iso2": "SG",
    "iso3": "SGP",
    "admin_name": "",
    "capital": "primary",
    "population": "5983000",
    "id": "1702341327"
  },
  {
    "city": "Douala",
    "city_ascii": "Douala",
    "lat": "4.0500",
    "lng": "9.7000",
    "country": "Cameroon",
    "iso2": "CM",
    "iso3": "CMR",
    "admin_name": "Littoral",
    "capital": "admin",
    "population": "5768400",
    "id": "1120494607"
  },
  {
    "city": "Toronto",
    "city_ascii": "Toronto",
    "lat": "43.7417",
    "lng": "-79.3733",
    "country": "Canada",
    "iso2": "CA",
    "iso3": "CAN",
    "admin_name": "Ontario",
    "capital": "admin",
    "population": "5647656",
    "id": "1124279679"
  },
  {
    "city": "Nairobi",
    "city_ascii": "Nairobi",
    "lat": "-1.2864",
    "lng": "36.8172",
    "country": "Kenya",
    "iso2": "KE",
    "iso3": "KEN",
    "admin_name": "Nairobi City",
    "capital": "primary",
    "population": "5545000",
    "id": "1404000661"
  },
  {
    "city": "Rangoon",
    "city_ascii": "Rangoon",
    "lat": "16.7950",
    "lng": "96.1600",
    "country": "Burma",
    "iso2": "MM",
    "iso3": "MMR",
    "admin_name": "Yangon",
    "capital": "primary",
    "population": "5209541",
    "id": "1104616656"
  },
  {
    "city": "Melbourne",
    "city_ascii": "Melbourne",
    "lat": "-37.8142",
    "lng": "144.9631",
    "country": "Australia",
    "iso2": "AU",
    "iso3": "AUS",
    "admin_name": "Victoria",
    "capital": "admin",
    "population": "5031195",
    "id": "1036533631"
  },
  {
    "city": "Abidjan",
    "city_ascii": "Abidjan",
    "lat": "5.3167",
    "lng": "-4.0333",
    "country": "Côte d’Ivoire",
    "iso2": "CI",
    "iso3": "CIV",
    "admin_name": "Abidjan",
    "capital": "primary",
    "population": "4980000",
    "id": "1384207980"
  },
  {
    "city": "Berlin",
    "city_ascii": "Berlin",
    "lat": "52.5200",
    "lng": "13.4050",
    "country": "Germany",
    "iso2": "DE",
    "iso3": "DEU",
    "admin_name": "Berlin",
    "capital": "primary",
    "population": "4890363",
    "id": "1276451290"
  },
  {
    "city": "Kabul",
    "city_ascii": "Kabul",
    "lat": "34.5253",
    "lng": "69.1783",
    "country": "Afghanistan",
    "iso2": "AF",
    "iso3": "AFG",
    "admin_name": "Kābul",
    "capital": "primary",
    "population": "4273156",
    "id": "1004993580"
  },
  {
    "city": "Bamako",
    "city_ascii": "Bamako",
    "lat": "12.6392",
    "lng": "-8.0028",
    "country": "Mali",
    "iso2": "ML",
    "iso3": "MLI",
    "admin_name": "Bamako",
    "capital": "primary",
    "population": "4227569",
    "id": "1466965925"
  },
  {
    "city": "Amman",
    "city_ascii": "Amman",
    "lat": "31.9497",
    "lng": "35.9328",
    "country": "Jordan",
    "iso2": "JO",
    "iso3": "JOR",
    "admin_name": "Al ‘Āşimah",
    "capital": "primary",
    "population": "4007526",
    "id": "1400522593"
  },
  {
    "city": "Casablanca",
    "city_ascii": "Casablanca",
    "lat": "33.5333",
    "lng": "-7.5833",
    "country": "Morocco",
    "iso2": "MA",
    "iso3": "MAR",
    "admin_name": "Casablanca-Settat",
    "capital": "admin",
    "population": "3499000",
    "id": "1504175315"
  },
  {
    "city": "Kumasi",
    "city_ascii": "Kumasi",
    "lat": "6.7000",
    "lng": "-1.6250",
    "country": "Ghana",
    "iso2": "GH",
    "iso3": "GHA",
    "admin_name": "Ashanti",
    "capital": "admin",
    "population": "3490030",
    "id": "1288181103"
  },
  {
    "city": "Algiers",
    "city_ascii": "Algiers",
    "lat": "36.7539",
    "lng": "3.0589",
    "country": "Algeria",
    "iso2": "DZ",
    "iso3": "DZA",
    "admin_name": "Alger",
    "capital": "primary",
    "population": "3415811",
    "id": "1012973369"
  },
  {
    "city": "Dubai",
    "city_ascii": "Dubai",
    "lat": "25.2631",
    "lng": "55.2972",
    "country": "United Arab Emirates",
    "iso2": "AE",
    "iso3": "ARE",
    "admin_name": "Dubayy",
    "capital": "admin",
    "population": "3331420",
    "id": "1784736618"
  },
  {
    "city": "Santa Cruz de la Sierra",
    "city_ascii": "Santa Cruz de la Sierra",
    "lat": "-17.7892",
    "lng": "-63.1975",
    "country": "Bolivia",
    "iso2": "BO",
    "iso3": "BOL",
    "admin_name": "Santa Cruz",
    "capital": "",
    "population": "3151676",
    "id": "1068005036"
  },
  {
    "city": "Athens",
    "city_ascii": "Athens",
    "lat": "37.9842",
    "lng": "23.7281",
    "country": "Greece",
    "iso2": "GR",
    "iso3": "GRC",
    "admin_name": "Attikí",
    "capital": "primary",
    "population": "3059764",
    "id": "1300715560"
  },
  {
    "city": "Addis Ababa",
    "city_ascii": "Addis Ababa",
    "lat": "9.0300",
    "lng": "38.7400",
    "country": "Ethiopia",
    "iso2": "ET",
    "iso3": "ETH",
    "admin_name": "Ādīs Ābeba",
    "capital": "primary",
    "population": "3041002",
    "id": "1231824991"
  },
  {
    "city": "Taichung",
    "city_ascii": "Taichung",
    "lat": "24.1439",
    "lng": "120.6794",
    "country": "Taiwan",
    "iso2": "TW",
    "iso3": "TWN",
    "admin_name": "Taichung",
    "capital": "admin",
    "population": "3033885",
    "id": "1158689622"
  },
  {
    "city": "Guatemala City",
    "city_ascii": "Guatemala City",
    "lat": "14.6133",
    "lng": "-90.5353",
    "country": "Guatemala",
    "iso2": "GT",
    "iso3": "GTM",
    "admin_name": "Guatemala",
    "capital": "primary",
    "population": "3014000",
    "id": "1320197916"
  },
  {
    "city": "Kuwait City",
    "city_ascii": "Kuwait City",
    "lat": "29.3697",
    "lng": "47.9783",
    "country": "Kuwait",
    "iso2": "KW",
    "iso3": "KWT",
    "admin_name": "Al ‘Āşimah",
    "capital": "primary",
    "population": "3000000",
    "id": "1414102075"
  },
  {
    "city": "Budapest",
    "city_ascii": "Budapest",
    "lat": "47.4925",
    "lng": "19.0514",
    "country": "Hungary",
    "iso2": "HU",
    "iso3": "HUN",
    "admin_name": "Budapest",
    "capital": "primary",
    "population": "2997958",
    "id": "1348611435"
  },
  {
    "city": "Sanaa",
    "city_ascii": "Sanaa",
    "lat": "15.3483",
    "lng": "44.2064",
    "country": "Yemen",
    "iso2": "YE",
    "iso3": "YEM",
    "admin_name": "Amānat al ‘Āşimah",
    "capital": "primary",
    "population": "2957000",
    "id": "1887750814"
  },
  {
    "city": "Tashkent",
    "city_ascii": "Tashkent",
    "lat": "41.3111",
    "lng": "69.2797",
    "country": "Uzbekistan",
    "iso2": "UZ",
    "iso3": "UZB",
    "admin_name": "Toshkent",
    "capital": "primary",
    "population": "2956384",
    "id": "1860331871"
  },
  {
    "city": "Kyiv",
    "city_ascii": "Kyiv",
    "lat": "50.4500",
    "lng": "30.5233",
    "country": "Ukraine",
    "iso2": "UA",
    "iso3": "UKR",
    "admin_name": "Kyiv, Misto",
    "capital": "primary",
    "population": "2952301",
    "id": "1804382913"
  },
  {
    "city": "Pyongyang",
    "city_ascii": "Pyongyang",
    "lat": "39.0167",
    "lng": "125.7475",
    "country": "Korea, North",
    "iso2": "KP",
    "iso3": "PRK",
    "admin_name": "P’yŏngyang",
    "capital": "primary",
    "population": "2863000",
    "id": "1408738594"
  },
  {
    "city": "Rome",
    "city_ascii": "Rome",
    "lat": "41.8933",
    "lng": "12.4828",
    "country": "Italy",
    "iso2": "IT",
    "iso3": "ITA",
    "admin_name": "Lazio",
    "capital": "primary",
    "population": "2748109",
    "id": "1380382862"
  },
  {
    "city": "Guayaquil",
    "city_ascii": "Guayaquil",
    "lat": "-2.1900",
    "lng": "-79.8875",
    "country": "Ecuador",
    "iso2": "EC",
    "iso3": "ECU",
    "admin_name": "Guayas",
    "capital": "admin",
    "population": "2650288",
    "id": "1218802178"
  },
  {
    "city": "Mogadishu",
    "city_ascii": "Mogadishu",
    "lat": "2.0392",
    "lng": "45.3419",
    "country": "Somalia",
    "iso2": "SO",
    "iso3": "SOM",
    "admin_name": "Banaadir",
    "capital": "primary",
    "population": "2610483",
    "id": "1706893395"
  },
  {
    "city": "Damascus",
    "city_ascii": "Damascus",
    "lat": "33.5131",
    "lng": "36.2919",
    "country": "Syria",
    "iso2": "SY",
    "iso3": "SYR",
    "admin_name": "Dimashq",
    "capital": "primary",
    "population": "2584771",
    "id": "1760685964"
  },
  {
    "city": "Lusaka",
    "city_ascii": "Lusaka",
    "lat": "-15.4167",
    "lng": "28.2833",
    "country": "Zambia",
    "iso2": "ZM",
    "iso3": "ZMB",
    "admin_name": "Lusaka",
    "capital": "primary",
    "population": "2467563",
    "id": "1894157390"
  },
  {
    "city": "Ouagadougou",
    "city_ascii": "Ouagadougou",
    "lat": "12.3686",
    "lng": "-1.5275",
    "country": "Burkina Faso",
    "iso2": "BF",
    "iso3": "BFA",
    "admin_name": "Centre",
    "capital": "primary",
    "population": "2453496",
    "id": "1854029208"
  },
  {
    "city": "Beirut",
    "city_ascii": "Beirut",
    "lat": "33.8983",
    "lng": "35.5057",
    "country": "Lebanon",
    "iso2": "LB",
    "iso3": "LBN",
    "admin_name": "Beyrouth",
    "capital": "primary",
    "population": "2421354",
    "id": "1422847713"
  },
  {
    "city": "Bucharest",
    "city_ascii": "Bucharest",
    "lat": "44.4325",
    "lng": "26.1039",
    "country": "Romania",
    "iso2": "RO",
    "iso3": "ROU",
    "admin_name": "Bucureşti",
    "capital": "primary",
    "population": "2412530",
    "id": "1642414442"
  },
  {
    "city": "Colombo",
    "city_ascii": "Colombo",
    "lat": "6.9344",
    "lng": "79.8428",
    "country": "Sri Lanka",
    "iso2": "LK",
    "iso3": "LKA",
    "admin_name": "Western",
    "capital": "primary",
    "population": "2323826",
    "id": "1144251314"
  },
  {
    "city": "Baku",
    "city_ascii": "Baku",
    "lat": "40.3953",
    "lng": "49.8822",
    "country": "Azerbaijan",
    "iso2": "AZ",
    "iso3": "AZE",
    "admin_name": "Bakı",
    "capital": "primary",
    "population": "2300500",
    "id": "1031946365"
  },
  {
    "city": "Antananarivo",
    "city_ascii": "Antananarivo",
    "lat": "-18.9100",
    "lng": "47.5250",
    "country": "Madagascar",
    "iso2": "MG",
    "iso3": "MDG",
    "admin_name": "Antananarivo",
    "capital": "primary",
    "population": "2300000",
    "id": "1450978461"
  },
  {
    "city": "Caracas",
    "city_ascii": "Caracas",
    "lat": "10.4806",
    "lng": "-66.9036",
    "country": "Venezuela",
    "iso2": "VE",
    "iso3": "VEN",
    "admin_name": "Distrito Capital",
    "capital": "primary",
    "population": "2245744",
    "id": "1862748204"
  },
  {
    "city": "Vienna",
    "city_ascii": "Vienna",
    "lat": "48.2083",
    "lng": "16.3725",
    "country": "Austria",
    "iso2": "AT",
    "iso3": "AUT",
    "admin_name": "Wien",
    "capital": "primary",
    "population": "2223236",
    "id": "1040261752"
  },
  {
    "city": "Harare",
    "city_ascii": "Harare",
    "lat": "-17.8292",
    "lng": "31.0522",
    "country": "Zimbabwe",
    "iso2": "ZW",
    "iso3": "ZWE",
    "admin_name": "Harare",
    "capital": "primary",
    "population": "2150000",
    "id": "1716196799"
  },
  {
    "city": "Phnom Penh",
    "city_ascii": "Phnom Penh",
    "lat": "11.5694",
    "lng": "104.9211",
    "country": "Cambodia",
    "iso2": "KH",
    "iso3": "KHM",
    "admin_name": "Phnom Penh",
    "capital": "primary",
    "population": "2129371",
    "id": "1116260534"
  },
  {
    "city": "Stockholm",
    "city_ascii": "Stockholm",
    "lat": "59.3294",
    "lng": "18.0686",
    "country": "Sweden",
    "iso2": "SE",
    "iso3": "SWE",
    "admin_name": "Stockholm",
    "capital": "primary",
    "population": "2121000",
    "id": "1752425602"
  },
  {
    "city": "Havana",
    "city_ascii": "Havana",
    "lat": "23.1367",
    "lng": "-82.3589",
    "country": "Cuba",
    "iso2": "CU",
    "iso3": "CUB",
    "admin_name": "La Habana",
    "capital": "primary",
    "population": "2089532",
    "id": "1192752771"
  },
  {
    "city": "Minsk",
    "city_ascii": "Minsk",
    "lat": "53.9000",
    "lng": "27.5667",
    "country": "Belarus",
    "iso2": "BY",
    "iso3": "BLR",
    "admin_name": "Minsk",
    "capital": "primary",
    "population": "1995471",
    "id": "1112348503"
  },
  {
    "city": "Tilburg",
    "city_ascii": "Tilburg",
    "lat": "51.5500",
    "lng": "5.0833",
    "country": "Netherlands",
    "iso2": "NL",
    "iso3": "NLD",
    "admin_name": "Noord-Brabant",
    "capital": "minor",
    "population": "1944588",
    "id": "1528817379"
  },
  {
    "city": "Almaty",
    "city_ascii": "Almaty",
    "lat": "43.2400",
    "lng": "76.9150",
    "country": "Kazakhstan",
    "iso2": "KZ",
    "iso3": "KAZ",
    "admin_name": "Almaty",
    "capital": "admin",
    "population": "1916822",
    "id": "1398351701"
  },
  {
    "city": "Blantyre",
    "city_ascii": "Blantyre",
    "lat": "-15.7861",
    "lng": "35.0058",
    "country": "Malawi",
    "iso2": "MW",
    "iso3": "MWI",
    "admin_name": "Blantyre",
    "capital": "admin",
    "population": "1895973",
    "id": "1454145012"
  },
  {
    "city": "Warsaw",
    "city_ascii": "Warsaw",
    "lat": "52.2300",
    "lng": "21.0111",
    "country": "Poland",
    "iso2": "PL",
    "iso3": "POL",
    "admin_name": "Mazowieckie",
    "capital": "primary",
    "population": "1860281",
    "id": "1616024847"
  },
  {
    "city": "San Juan",
    "city_ascii": "San Juan",
    "lat": "18.3985",
    "lng": "-66.0610",
    "country": "Puerto Rico",
    "iso2": "PR",
    "iso3": "PRI",
    "admin_name": "Puerto Rico",
    "capital": "primary",
    "population": "1814587",
    "id": "1630035577"
  },
  {
    "city": "Brazzaville",
    "city_ascii": "Brazzaville",
    "lat": "-4.2694",
    "lng": "15.2711",
    "country": "Congo (Brazzaville)",
    "iso2": "CG",
    "iso3": "COG",
    "admin_name": "Brazzaville",
    "capital": "primary",
    "population": "1733263",
    "id": "1178340306"
  },
  {
    "city": "Masqaţ",
    "city_ascii": "Masqat",
    "lat": "23.5889",
    "lng": "58.4083",
    "country": "Oman",
    "iso2": "OM",
    "iso3": "OMN",
    "admin_name": "Masqaţ",
    "capital": "",
    "population": "1720000",
    "id": "1512001294"
  },
  {
    "city": "Montevideo",
    "city_ascii": "Montevideo",
    "lat": "-34.8836",
    "lng": "-56.1819",
    "country": "Uruguay",
    "iso2": "UY",
    "iso3": "URY",
    "admin_name": "Montevideo",
    "capital": "primary",
    "population": "1719453",
    "id": "1858107000"
  },
  {
    "city": "Tegucigalpa",
    "city_ascii": "Tegucigalpa",
    "lat": "14.1058",
    "lng": "-87.2047",
    "country": "Honduras",
    "iso2": "HN",
    "iso3": "HND",
    "admin_name": "Francisco Morazán",
    "capital": "primary",
    "population": "1682725",
    "id": "1340344059"
  },
  {
    "city": "Kampala",
    "city_ascii": "Kampala",
    "lat": "0.3136",
    "lng": "32.5811",
    "country": "Uganda",
    "iso2": "UG",
    "iso3": "UGA",
    "admin_name": "Kampala",
    "capital": "primary",
    "population": "1680600",
    "id": "1800406299"
  },
  {
    "city": "Conakry",
    "city_ascii": "Conakry",
    "lat": "9.5092",
    "lng": "-13.7122",
    "country": "Guinea",
    "iso2": "GN",
    "iso3": "GIN",
    "admin_name": "Conakry",
    "capital": "primary",
    "population": "1667864",
    "id": "1324568159"
  },
  {
    "city": "Sofia",
    "city_ascii": "Sofia",
    "lat": "42.7000",
    "lng": "23.3300",
    "country": "Bulgaria",
    "iso2": "BG",
    "iso3": "BGR",
    "admin_name": "Sofia-Grad",
    "capital": "primary",
    "population": "1547779",
    "id": "1100762037"
  },
  {
    "city": "San José",
    "city_ascii": "San Jose",
    "lat": "9.9325",
    "lng": "-84.0800",
    "country": "Costa Rica",
    "iso2": "CR",
    "iso3": "CRI",
    "admin_name": "San José",
    "capital": "primary",
    "population": "1543000",
    "id": "1188749877"
  },
  {
    "city": "Kigali",
    "city_ascii": "Kigali",
    "lat": "-1.9439",
    "lng": "30.0594",
    "country": "Rwanda",
    "iso2": "RW",
    "iso3": "RWA",
    "admin_name": "Kigali",
    "capital": "primary",
    "population": "1518632",
    "id": "1646923541"
  },
  {
    "city": "Panama City",
    "city_ascii": "Panama City",
    "lat": "8.9833",
    "lng": "-79.5167",
    "country": "Panama",
    "iso2": "PA",
    "iso3": "PAN",
    "admin_name": "Panamá",
    "capital": "primary",
    "population": "1500189",
    "id": "1591672475"
  },
  {
    "city": "Dakar",
    "city_ascii": "Dakar",
    "lat": "14.6928",
    "lng": "-17.4467",
    "country": "Senegal",
    "iso2": "SN",
    "iso3": "SEN",
    "admin_name": "Dakar",
    "capital": "primary",
    "population": "1438725",
    "id": "1686604760"
  },
  {
    "city": "Ulaanbaatar",
    "city_ascii": "Ulaanbaatar",
    "lat": "47.9203",
    "lng": "106.9172",
    "country": "Mongolia",
    "iso2": "MN",
    "iso3": "MNG",
    "admin_name": "Ulaanbaatar",
    "capital": "primary",
    "population": "1396288",
    "id": "1496024767"
  },
  {
    "city": "Tel Aviv-Yafo",
    "city_ascii": "Tel Aviv-Yafo",
    "lat": "32.0800",
    "lng": "34.7800",
    "country": "Israel",
    "iso2": "IL",
    "iso3": "ISR",
    "admin_name": "Tel Aviv",
    "capital": "admin",
    "population": "1388400",
    "id": "1376401542"
  },
  {
    "city": "Copenhagen",
    "city_ascii": "Copenhagen",
    "lat": "55.6761",
    "lng": "12.5683",
    "country": "Denmark",
    "iso2": "DK",
    "iso3": "DNK",
    "admin_name": "Hovedstaden",
    "capital": "primary",
    "population": "1366301",
    "id": "1208763942"
  },
  {
    "city": "Helsinki",
    "city_ascii": "Helsinki",
    "lat": "60.1708",
    "lng": "24.9375",
    "country": "Finland",
    "iso2": "FI",
    "iso3": "FIN",
    "admin_name": "Uusimaa",
    "capital": "primary",
    "population": "1360075",
    "id": "1246177997"
  },
  {
    "city": "Prague",
    "city_ascii": "Prague",
    "lat": "50.0875",
    "lng": "14.4214",
    "country": "Czechia",
    "iso2": "CZ",
    "iso3": "CZE",
    "admin_name": "Praha",
    "capital": "primary",
    "population": "1357326",
    "id": "1203744823"
  },
  {
    "city": "Auckland",
    "city_ascii": "Auckland",
    "lat": "-36.8406",
    "lng": "174.7400",
    "country": "New Zealand",
    "iso2": "NZ",
    "iso3": "NZL",
    "admin_name": "Auckland",
    "capital": "admin",
    "population": "1346091",
    "id": "1554435911"
  },
  {
    "city": "Santiago",
    "city_ascii": "Santiago",
    "lat": "19.4572",
    "lng": "-70.6889",
    "country": "Dominican Republic",
    "iso2": "DO",
    "iso3": "DOM",
    "admin_name": "Cibao Norte",
    "capital": "admin",
    "population": "1343423",
    "id": "1214985348"
  },
  {
    "city": "Porto",
    "city_ascii": "Porto",
    "lat": "41.1621",
    "lng": "-8.6220",
    "country": "Portugal",
    "iso2": "PT",
    "iso3": "PRT",
    "admin_name": "Porto",
    "capital": "admin",
    "population": "1278210",
    "id": "1620356810"
  },
  {
    "city": "Dublin",
    "city_ascii": "Dublin",
    "lat": "53.3500",
    "lng": "-6.2603",
    "country": "Ireland",
    "iso2": "IE",
    "iso3": "IRL",
    "admin_name": "Dublin",
    "capital": "primary",
    "population": "1263219",
    "id": "1372595407"
  },
  {
    "city": "Brussels",
    "city_ascii": "Brussels",
    "lat": "50.8467",
    "lng": "4.3525",
    "country": "Belgium",
    "iso2": "BE",
    "iso3": "BEL",
    "admin_name": "Brussels-Capital Region",
    "capital": "primary",
    "population": "1235192",
    "id": "1056469830"
  },
  {
    "city": "Belgrade",
    "city_ascii": "Belgrade",
    "lat": "44.8200",
    "lng": "20.4600",
    "country": "Serbia",
    "iso2": "RS",
    "iso3": "SRB",
    "admin_name": "Beograd",
    "capital": "primary",
    "population": "1197714",
    "id": "1688374696"
  },
  {
    "city": "Doha",
    "city_ascii": "Doha",
    "lat": "25.2867",
    "lng": "51.5333",
    "country": "Qatar",
    "iso2": "QA",
    "iso3": "QAT",
    "admin_name": "Ad Dawḩah",
    "capital": "primary",
    "population": "1186023",
    "id": "1634459660"
  },
  {
    "city": "Tripoli",
    "city_ascii": "Tripoli",
    "lat": "32.8872",
    "lng": "13.1914",
    "country": "Libya",
    "iso2": "LY",
    "iso3": "LBY",
    "admin_name": "Ţarābulus",
    "capital": "primary",
    "population": "1183000",
    "id": "1434201852"
  },
  {
    "city": "Bujumbura",
    "city_ascii": "Bujumbura",
    "lat": "-3.3833",
    "lng": "29.3667",
    "country": "Burundi",
    "iso2": "BI",
    "iso3": "BDI",
    "admin_name": "Bujumbura Mairie",
    "capital": "primary",
    "population": "1143202",
    "id": "1108101689"
  },
  {
    "city": "Maputo",
    "city_ascii": "Maputo",
    "lat": "-25.9667",
    "lng": "32.5833",
    "country": "Mozambique",
    "iso2": "MZ",
    "iso3": "MOZ",
    "admin_name": "Maputo",
    "capital": "primary",
    "population": "1133200",
    "id": "1508074843"
  },
  {
    "city": "Bishkek",
    "city_ascii": "Bishkek",
    "lat": "42.8747",
    "lng": "74.6122",
    "country": "Kyrgyzstan",
    "iso2": "KG",
    "iso3": "KGZ",
    "admin_name": "Bishkek",
    "capital": "primary",
    "population": "1120827",
    "id": "1417191971"
  },
  {
    "city": "Tbilisi",
    "city_ascii": "Tbilisi",
    "lat": "41.7225",
    "lng": "44.7925",
    "country": "Georgia",
    "iso2": "GE",
    "iso3": "GEO",
    "admin_name": "Tbilisi",
    "capital": "primary",
    "population": "1118035",
    "id": "1268203191"
  },
  {
    "city": "N’Djamena",
    "city_ascii": "N'Djamena",
    "lat": "12.1100",
    "lng": "15.0500",
    "country": "Chad",
    "iso2": "TD",
    "iso3": "TCD",
    "admin_name": "N’Djamena",
    "capital": "primary",
    "population": "1092066",
    "id": "1148708596"
  },
  {
    "city": "Nouakchott",
    "city_ascii": "Nouakchott",
    "lat": "18.0858",
    "lng": "-15.9785",
    "country": "Mauritania",
    "iso2": "MR",
    "iso3": "MRT",
    "admin_name": "Nouakchott Ouest",
    "capital": "primary",
    "population": "1077169",
    "id": "1478414984"
  },
  {
    "city": "Yerevan",
    "city_ascii": "Yerevan",
    "lat": "40.1814",
    "lng": "44.5144",
    "country": "Armenia",
    "iso2": "AM",
    "iso3": "ARM",
    "admin_name": "Yerevan",
    "capital": "primary",
    "population": "1075800",
    "id": "1051074169"
  },
  {
    "city": "Oslo",
    "city_ascii": "Oslo",
    "lat": "59.9133",
    "lng": "10.7389",
    "country": "Norway",
    "iso2": "NO",
    "iso3": "NOR",
    "admin_name": "Oslo",
    "capital": "primary",
    "population": "1064235",
    "id": "1578324706"
  },
  {
    "city": "Managua",
    "city_ascii": "Managua",
    "lat": "12.1364",
    "lng": "-86.2514",
    "country": "Nicaragua",
    "iso2": "NI",
    "iso3": "NIC",
    "admin_name": "Managua",
    "capital": "primary",
    "population": "1051236",
    "id": "1558296252"
  },
  {
    "city": "Ashgabat",
    "city_ascii": "Ashgabat",
    "lat": "37.9375",
    "lng": "58.3800",
    "country": "Turkmenistan",
    "iso2": "TM",
    "iso3": "TKM",
    "admin_name": "Aşgabat",
    "capital": "primary",
    "population": "1030063",
    "id": "1795049992"
  },
  {
    "city": "Niamey",
    "city_ascii": "Niamey",
    "lat": "13.5150",
    "lng": "2.1175",
    "country": "Niger",
    "iso2": "NE",
    "iso3": "NER",
    "admin_name": "Niamey",
    "capital": "primary",
    "population": "1026848",
    "id": "1562932886"
  },
  {
    "city": "Monrovia",
    "city_ascii": "Monrovia",
    "lat": "6.3133",
    "lng": "-10.8014",
    "country": "Liberia",
    "iso2": "LR",
    "iso3": "LBR",
    "admin_name": "Montserrado",
    "capital": "primary",
    "population": "1021762",
    "id": "1430477826"
  },
  {
    "city": "Port-au-Prince",
    "city_ascii": "Port-au-Prince",
    "lat": "18.5333",
    "lng": "-72.3333",
    "country": "Haiti",
    "iso2": "HT",
    "iso3": "HTI",
    "admin_name": "Ouest",
    "capital": "primary",
    "population": "987310",
    "id": "1332401940"
  },
  {
    "city": "Asmara",
    "city_ascii": "Asmara",
    "lat": "15.3228",
    "lng": "38.9250",
    "country": "Eritrea",
    "iso2": "ER",
    "iso3": "ERI",
    "admin_name": "Ma’ĭkel",
    "capital": "primary",
    "population": "963000",
    "id": "1232791236"
  },
  {
    "city": "Freetown",
    "city_ascii": "Freetown",
    "lat": "8.4844",
    "lng": "-13.2344",
    "country": "Sierra Leone",
    "iso2": "SL",
    "iso3": "SLE",
    "admin_name": "Western Area",
    "capital": "primary",
    "population": "951000",
    "id": "1694085071"
  },
  {
    "city": "Vientiane",
    "city_ascii": "Vientiane",
    "lat": "17.9800",
    "lng": "102.6300",
    "country": "Laos",
    "iso2": "LA",
    "iso3": "LAO",
    "admin_name": "Viangchan",
    "capital": "primary",
    "population": "948487",
    "id": "1418732714"
  },
  {
    "city": "Riga",
    "city_ascii": "Riga",
    "lat": "56.9489",
    "lng": "24.1064",
    "country": "Latvia",
    "iso2": "LV",
    "iso3": "LVA",
    "admin_name": "Rīga",
    "capital": "primary",
    "population": "920643",
    "id": "1428586192"
  },
  {
    "city": "Bangui",
    "city_ascii": "Bangui",
    "lat": "4.3733",
    "lng": "18.5628",
    "country": "Central African Republic",
    "iso2": "CF",
    "iso3": "CAF",
    "admin_name": "Bangui",
    "capital": "primary",
    "population": "889231",
    "id": "1140080881"
  },
  {
    "city": "Dushanbe",
    "city_ascii": "Dushanbe",
    "lat": "38.5367",
    "lng": "68.7800",
    "country": "Tajikistan",
    "iso2": "TJ",
    "iso3": "TJK",
    "admin_name": "Dushanbe",
    "capital": "primary",
    "population": "863400",
    "id": "1762930616"
  },
  {
    "city": "Kathmandu",
    "city_ascii": "Kathmandu",
    "lat": "27.7100",
    "lng": "85.3200",
    "country": "Nepal",
    "iso2": "NP",
    "iso3": "NPL",
    "admin_name": "",
    "capital": "primary",
    "population": "845767",
    "id": "1524589448"
  },
  {
    "city": "Libreville",
    "city_ascii": "Libreville",
    "lat": "0.3903",
    "lng": "9.4542",
    "country": "Gabon",
    "iso2": "GA",
    "iso3": "GAB",
    "admin_name": "Estuaire",
    "capital": "primary",
    "population": "797003",
    "id": "1266952885"
  },
  {
    "city": "Zagreb",
    "city_ascii": "Zagreb",
    "lat": "45.8131",
    "lng": "15.9775",
    "country": "Croatia",
    "iso2": "HR",
    "iso3": "HRV",
    "admin_name": "Zagreb, Grad",
    "capital": "primary",
    "population": "767131",
    "id": "1191233290"
  },
  {
    "city": "Vilnius",
    "city_ascii": "Vilnius",
    "lat": "54.6872",
    "lng": "25.2800",
    "country": "Lithuania",
    "iso2": "LT",
    "iso3": "LTU",
    "admin_name": "Vilniaus Miestas",
    "capital": "primary",
    "population": "716856",
    "id": "1440887149"
  },
  {
    "city": "Chisinau",
    "city_ascii": "Chisinau",
    "lat": "47.0228",
    "lng": "28.8353",
    "country": "Moldova",
    "iso2": "MD",
    "iso3": "MDA",
    "admin_name": "Chişinău",
    "capital": "primary",
    "population": "702300",
    "id": "1498011437"
  },
  {
    "city": "Port Moresby",
    "city_ascii": "Port Moresby",
    "lat": "-9.4789",
    "lng": "147.1494",
    "country": "Papua New Guinea",
    "iso2": "PG",
    "iso3": "PNG",
    "admin_name": "National Capital",
    "capital": "primary",
    "population": "700000",
    "id": "1598685395"
  },
  {
    "city": "Cotonou",
    "city_ascii": "Cotonou",
    "lat": "6.3667",
    "lng": "2.4333",
    "country": "Benin",
    "iso2": "BJ",
    "iso3": "BEN",
    "admin_name": "Littoral",
    "capital": "primary",
    "population": "679012",
    "id": "1204955174"
  },
  {
    "city": "Manama",
    "city_ascii": "Manama",
    "lat": "26.2250",
    "lng": "50.5775",
    "country": "Bahrain",
    "iso2": "BH",
    "iso3": "BHR",
    "admin_name": "Al ‘Āşimah",
    "capital": "primary",
    "population": "635000",
    "id": "1048989486"
  },
  {
    "city": "Tallinn",
    "city_ascii": "Tallinn",
    "lat": "59.4372",
    "lng": "24.7453",
    "country": "Estonia",
    "iso2": "EE",
    "iso3": "EST",
    "admin_name": "Tallinn",
    "capital": "primary",
    "population": "614561",
    "id": "1233260021"
  },
  {
    "city": "Djibouti",
    "city_ascii": "Djibouti",
    "lat": "11.5883",
    "lng": "43.1450",
    "country": "Djibouti",
    "iso2": "DJ",
    "iso3": "DJI",
    "admin_name": "Djibouti",
    "capital": "primary",
    "population": "603900",
    "id": "1262028958"
  },
  {
    "city": "Tunis",
    "city_ascii": "Tunis",
    "lat": "36.8064",
    "lng": "10.1817",
    "country": "Tunisia",
    "iso2": "TN",
    "iso3": "TUN",
    "admin_name": "Tunis",
    "capital": "primary",
    "population": "602560",
    "id": "1788742103"
  },
  {
    "city": "Gaza",
    "city_ascii": "Gaza",
    "lat": "31.5069",
    "lng": "34.4560",
    "country": "Gaza Strip",
    "iso2": "XG",
    "iso3": "XGZ",
    "admin_name": "",
    "capital": "primary",
    "population": "590481",
    "id": "1916116052"
  },
  {
    "city": "Kingston",
    "city_ascii": "Kingston",
    "lat": "17.9714",
    "lng": "-76.7931",
    "country": "Jamaica",
    "iso2": "JM",
    "iso3": "JAM",
    "admin_name": "Kingston",
    "capital": "primary",
    "population": "580000",
    "id": "1388709177"
  },
  {
    "city": "Macau",
    "city_ascii": "Macau",
    "lat": "22.2006",
    "lng": "113.5461",
    "country": "Macau",
    "iso2": "MO",
    "iso3": "MAC",
    "admin_name": "",
    "capital": "",
    "population": "568700",
    "id": "1446227359"
  },
  {
    "city": "Skopje",
    "city_ascii": "Skopje",
    "lat": "41.9961",
    "lng": "21.4317",
    "country": "North Macedonia",
    "iso2": "MK",
    "iso3": "MKD",
    "admin_name": "Skopje",
    "capital": "primary",
    "population": "526502",
    "id": "1807600615"
  },
  {
    "city": "Bissau",
    "city_ascii": "Bissau",
    "lat": "11.8500",
    "lng": "-15.5667",
    "country": "Guinea-Bissau",
    "iso2": "GW",
    "iso3": "GNB",
    "admin_name": "Bissau",
    "capital": "primary",
    "population": "492004",
    "id": "1624168850"
  },
  {
    "city": "Valletta",
    "city_ascii": "Valletta",
    "lat": "35.8983",
    "lng": "14.5125",
    "country": "Malta",
    "iso2": "MT",
    "iso3": "MLT",
    "admin_name": "Valletta",
    "capital": "primary",
    "population": "480134",
    "id": "1470574399"
  },
  {
    "city": "Asunción",
    "city_ascii": "Asuncion",
    "lat": "-25.3000",
    "lng": "-57.6333",
    "country": "Paraguay",
    "iso2": "PY",
    "iso3": "PRY",
    "admin_name": "Asunción",
    "capital": "primary",
    "population": "477346",
    "id": "1600057911"
  },
  {
    "city": "Bratislava",
    "city_ascii": "Bratislava",
    "lat": "48.1439",
    "lng": "17.1097",
    "country": "Slovakia",
    "iso2": "SK",
    "iso3": "SVK",
    "admin_name": "Bratislava",
    "capital": "primary",
    "population": "475503",
    "id": "1703195001"
  },
  {
    "city": "Juba",
    "city_ascii": "Juba",
    "lat": "4.8500",
    "lng": "31.6000",
    "country": "South Sudan",
    "iso2": "SS",
    "iso3": "SSD",
    "admin_name": "Central Equatoria",
    "capital": "primary",
    "population": "459342",
    "id": "1728444337"
  },
  {
    "city": "Zürich",
    "city_ascii": "Zurich",
    "lat": "47.3744",
    "lng": "8.5411",
    "country": "Switzerland",
    "iso2": "CH",
    "iso3": "CHE",
    "admin_name": "Zürich",
    "capital": "admin",
    "population": "447082",
    "id": "1756539143"
  },
  {
    "city": "Windhoek",
    "city_ascii": "Windhoek",
    "lat": "-22.5700",
    "lng": "17.0836",
    "country": "Namibia",
    "iso2": "NA",
    "iso3": "NAM",
    "admin_name": "Khomas",
    "capital": "primary",
    "population": "431000",
    "id": "1516802003"
  },
  {
    "city": "Sarajevo",
    "city_ascii": "Sarajevo",
    "lat": "43.8564",
    "lng": "18.4131",
    "country": "Bosnia and Herzegovina",
    "iso2": "BA",
    "iso3": "BIH",
    "admin_name": "Bosnia and Herzegovina, Federation of",
    "capital": "primary",
    "population": "419957",
    "id": "1070966777"
  },
  {
    "city": "Tirana",
    "city_ascii": "Tirana",
    "lat": "41.3289",
    "lng": "19.8178",
    "country": "Albania",
    "iso2": "AL",
    "iso3": "ALB",
    "admin_name": "Tiranë",
    "capital": "primary",
    "population": "418495",
    "id": "1008162156"
  },
  {
    "city": "Banjul",
    "city_ascii": "Banjul",
    "lat": "13.4531",
    "lng": "-16.5775",
    "country": "Gambia, The",
    "iso2": "GM",
    "iso3": "GMB",
    "admin_name": "Banjul",
    "capital": "primary",
    "population": "413397",
    "id": "1270723713"
  },
  {
    "city": "Maseru",
    "city_ascii": "Maseru",
    "lat": "-29.3100",
    "lng": "27.4800",
    "country": "Lesotho",
    "iso2": "LS",
    "iso3": "LSO",
    "admin_name": "Maseru",
    "capital": "primary",
    "population": "343541",
    "id": "1426977668"
  },
  {
    "city": "Nicosia",
    "city_ascii": "Nicosia",
    "lat": "35.1725",
    "lng": "33.3650",
    "country": "Cyprus",
    "iso2": "CY",
    "iso3": "CYP",
    "admin_name": "Lefkosía",
    "capital": "primary",
    "population": "330000",
    "id": "1196944155"
  },
  {
    "city": "San Salvador",
    "city_ascii": "San Salvador",
    "lat": "13.6989",
    "lng": "-89.1914",
    "country": "El Salvador",
    "iso2": "SV",
    "iso3": "SLV",
    "admin_name": "San Salvador",
    "capital": "primary",
    "population": "316090",
    "id": "1222647454"
  },
  {
    "city": "Saint-Denis",
    "city_ascii": "Saint-Denis",
    "lat": "-20.8789",
    "lng": "55.4481",
    "country": "Reunion",
    "iso2": "RE",
    "iso3": "REU",
    "admin_name": "",
    "capital": "primary",
    "population": "315080",
    "id": "1638024662"
  },
  {
    "city": "Malabo",
    "city_ascii": "Malabo",
    "lat": "3.7456",
    "lng": "8.7744",
    "country": "Equatorial Guinea",
    "iso2": "GQ",
    "iso3": "GNQ",
    "admin_name": "Bioko Norte",
    "capital": "primary",
    "population": "297000",
    "id": "1226861333"
  },
  {
    "city": "Ljubljana",
    "city_ascii": "Ljubljana",
    "lat": "46.0514",
    "lng": "14.5061",
    "country": "Slovenia",
    "iso2": "SI",
    "iso3": "SVN",
    "admin_name": "Ljubljana",
    "capital": "primary",
    "population": "284293",
    "id": "1705917455"
  },
  {
    "city": "Nassau",
    "city_ascii": "Nassau",
    "lat": "25.0781",
    "lng": "-77.3386",
    "country": "Bahamas, The",
    "iso2": "BS",
    "iso3": "BHS",
    "admin_name": "",
    "capital": "primary",
    "population": "274400",
    "id": "1044318561"
  },
  {
    "city": "Fort-de-France",
    "city_ascii": "Fort-de-France",
    "lat": "14.6000",
    "lng": "-61.0667",
    "country": "Martinique",
    "iso2": "MQ",
    "iso3": "MTQ",
    "admin_name": "",
    "capital": "primary",
    "population": "253995",
    "id": "1474969110"
  },
  {
    "city": "Pointe-à-Pitre",
    "city_ascii": "Pointe-a-Pitre",
    "lat": "16.2411",
    "lng": "-61.5331",
    "country": "Guadeloupe",
    "iso2": "GP",
    "iso3": "GLP",
    "admin_name": "",
    "capital": "",
    "population": "250952",
    "id": "1312460524"
  },
  {
    "city": "Gaborone",
    "city_ascii": "Gaborone",
    "lat": "-24.6581",
    "lng": "25.9122",
    "country": "Botswana",
    "iso2": "BW",
    "iso3": "BWA",
    "admin_name": "Gaborone",
    "capital": "primary",
    "population": "235884",
    "id": "1072756768"
  },
  {
    "city": "Paramaribo",
    "city_ascii": "Paramaribo",
    "lat": "5.8522",
    "lng": "-55.2039",
    "country": "Suriname",
    "iso2": "SR",
    "iso3": "SUR",
    "admin_name": "Paramaribo",
    "capital": "primary",
    "population": "223757",
    "id": "1740518660"
  },
  {
    "city": "Dili",
    "city_ascii": "Dili",
    "lat": "-8.5536",
    "lng": "125.5783",
    "country": "Timor-Leste",
    "iso2": "TL",
    "iso3": "TLS",
    "admin_name": "Díli",
    "capital": "primary",
    "population": "222323",
    "id": "1626308942"
  },
  {
    "city": "Prizren",
    "city_ascii": "Prizren",
    "lat": "42.2128",
    "lng": "20.7392",
    "country": "Kosovo",
    "iso2": "XK",
    "iso3": "XKS",
    "admin_name": "Prizren",
    "capital": "admin",
    "population": "220128",
    "id": "1901360309"
  },
  {
    "city": "Hebron",
    "city_ascii": "Hebron",
    "lat": "31.5286",
    "lng": "35.0969",
    "country": "West Bank",
    "iso2": "XW",
    "iso3": "XWB",
    "admin_name": "",
    "capital": "",
    "population": "201063",
    "id": "1934166495"
  },
  {
    "city": "Georgetown",
    "city_ascii": "Georgetown",
    "lat": "6.8058",
    "lng": "-58.1508",
    "country": "Guyana",
    "iso2": "GY",
    "iso3": "GUY",
    "admin_name": "Demerara-Mahaica",
    "capital": "primary",
    "population": "200500",
    "id": "1328160906"
  },
  {
    "city": "Suva",
    "city_ascii": "Suva",
    "lat": "-18.1416",
    "lng": "178.4419",
    "country": "Fiji",
    "iso2": "FJ",
    "iso3": "FJI",
    "admin_name": "Rewa",
    "capital": "primary",
    "population": "185913",
    "id": "1242615095"
  },
  {
    "city": "Nouméa",
    "city_ascii": "Noumea",
    "lat": "-22.2758",
    "lng": "166.4580",
    "country": "New Caledonia",
    "iso2": "NC",
    "iso3": "NCL",
    "admin_name": "Province Sud",
    "capital": "primary",
    "population": "182341",
    "id": "1540958092"
  },
  {
    "city": "Podgorica",
    "city_ascii": "Podgorica",
    "lat": "42.4414",
    "lng": "19.2628",
    "country": "Montenegro",
    "iso2": "ME",
    "iso3": "MNE",
    "admin_name": "Podgorica",
    "capital": "primary",
    "population": "173024",
    "id": "1499454516"
  },
  {
    "city": "Willemstad",
    "city_ascii": "Willemstad",
    "lat": "12.1080",
    "lng": "-68.9350",
    "country": "Curaçao",
    "iso2": "CW",
    "iso3": "CUW",
    "admin_name": "",
    "capital": "primary",
    "population": "150000",
    "id": "1531000000"
  },
  {
    "city": "Port Louis",
    "city_ascii": "Port Louis",
    "lat": "-20.1644",
    "lng": "57.5042",
    "country": "Mauritius",
    "iso2": "MU",
    "iso3": "MUS",
    "admin_name": "Port Louis",
    "capital": "primary",
    "population": "149194",
    "id": "1480131261"
  },
  {
    "city": "Reykjavík",
    "city_ascii": "Reykjavik",
    "lat": "64.1467",
    "lng": "-21.9400",
    "country": "Iceland",
    "iso2": "IS",
    "iso3": "ISL",
    "admin_name": "Reykjavík",
    "capital": "primary",
    "population": "139875",
    "id": "1352327190"
  },
  {
    "city": "Male",
    "city_ascii": "Male",
    "lat": "4.1753",
    "lng": "73.5089",
    "country": "Maldives",
    "iso2": "MV",
    "iso3": "MDV",
    "admin_name": "Maale",
    "capital": "primary",
    "population": "133019",
    "id": "1462441685"
  },
  {
    "city": "Luxembourg",
    "city_ascii": "Luxembourg",
    "lat": "49.6117",
    "lng": "6.1319",
    "country": "Luxembourg",
    "iso2": "LU",
    "iso3": "LUX",
    "admin_name": "Luxembourg",
    "capital": "primary",
    "population": "132780",
    "id": "1442262731"
  },
  {
    "city": "Papeete",
    "city_ascii": "Papeete",
    "lat": "-17.5334",
    "lng": "-149.5667",
    "country": "French Polynesia",
    "iso2": "PF",
    "iso3": "PYF",
    "admin_name": "Îles du Vent",
    "capital": "primary",
    "population": "131695",
    "id": "1258907380"
  },
  {
    "city": "Maina",
    "city_ascii": "Maina",
    "lat": "13.4692",
    "lng": "144.7332",
    "country": "Guam",
    "iso2": "GU",
    "iso3": "GUM",
    "admin_name": "",
    "capital": "",
    "population": "122411",
    "id": "1316874021"
  },
  {
    "city": "Thimphu",
    "city_ascii": "Thimphu",
    "lat": "27.4722",
    "lng": "89.6361",
    "country": "Bhutan",
    "iso2": "BT",
    "iso3": "BTN",
    "admin_name": "Thimphu",
    "capital": "primary",
    "population": "114551",
    "id": "1064010361"
  },
  {
    "city": "Sokodé",
    "city_ascii": "Sokode",
    "lat": "8.9833",
    "lng": "1.1333",
    "country": "Togo",
    "iso2": "TG",
    "iso3": "TGO",
    "admin_name": "Centrale",
    "capital": "admin",
    "population": "113000",
    "id": "1768875145"
  },
  {
    "city": "Manzini",
    "city_ascii": "Manzini",
    "lat": "-26.4833",
    "lng": "31.3667",
    "country": "Eswatini",
    "iso2": "SZ",
    "iso3": "SWZ",
    "admin_name": "Manzini",
    "capital": "admin",
    "population": "110508",
    "id": "1748177431"
  },
  {
    "city": "Bridgetown",
    "city_ascii": "Bridgetown",
    "lat": "13.0975",
    "lng": "-59.6167",
    "country": "Barbados",
    "iso2": "BB",
    "iso3": "BRB",
    "admin_name": "Saint Michael",
    "capital": "primary",
    "population": "110000",
    "id": "1052274244"
  },
  {
    "city": "Chaguanas",
    "city_ascii": "Chaguanas",
    "lat": "10.5167",
    "lng": "-61.4000",
    "country": "Trinidad and Tobago",
    "iso2": "TT",
    "iso3": "TTO",
    "admin_name": "Chaguanas",
    "capital": "admin",
    "population": "101297",
    "id": "1780795054"
  },
  {
    "city": "Honiara",
    "city_ascii": "Honiara",
    "lat": "-9.4319",
    "lng": "159.9556",
    "country": "Solomon Islands",
    "iso2": "SB",
    "iso3": "SLB",
    "admin_name": "Honiara",
    "capital": "primary",
    "population": "84520",
    "id": "1090737486"
  },
  {
    "city": "Mamoudzou",
    "city_ascii": "Mamoudzou",
    "lat": "-12.7806",
    "lng": "45.2278",
    "country": "Mayotte",
    "iso2": "YT",
    "iso3": "MYT",
    "admin_name": "",
    "capital": "primary",
    "population": "71437",
    "id": "1175099654"
  },
  {
    "city": "Mindelo",
    "city_ascii": "Mindelo",
    "lat": "16.8860",
    "lng": "-24.9880",
    "country": "Cabo Verde",
    "iso2": "CV",
    "iso3": "CPV",
    "admin_name": "São Vicente",
    "capital": "admin",
    "population": "70468",
    "id": "1132180389"
  },
  {
    "city": "Castries",
    "city_ascii": "Castries",
    "lat": "14.0167",
    "lng": "-60.9833",
    "country": "Saint Lucia",
    "iso2": "LC",
    "iso3": "LCA",
    "admin_name": "Castries",
    "capital": "primary",
    "population": "70000",
    "id": "1662922505"
  },
  {
    "city": "São Tomé",
    "city_ascii": "Sao Tome",
    "lat": "0.3361",
    "lng": "6.7306",
    "country": "Sao Tome and Principe",
    "iso2": "ST",
    "iso3": "STP",
    "admin_name": "Água Grande",
    "capital": "primary",
    "population": "65468",
    "id": "1678301324"
  },
  {
    "city": "Cayenne",
    "city_ascii": "Cayenne",
    "lat": "4.9330",
    "lng": "-52.3300",
    "country": "French Guiana",
    "iso2": "GF",
    "iso3": "GUF",
    "admin_name": "",
    "capital": "primary",
    "population": "61550",
    "id": "1254304969"
  },
  {
    "city": "Belize City",
    "city_ascii": "Belize City",
    "lat": "17.4986",
    "lng": "-88.1886",
    "country": "Belize",
    "iso2": "BZ",
    "iso3": "BLZ",
    "admin_name": "Belize",
    "capital": "admin",
    "population": "57169",
    "id": "1084150679"
  },
  {
    "city": "Bandar Seri Begawan",
    "city_ascii": "Bandar Seri Begawan",
    "lat": "4.8903",
    "lng": "114.9422",
    "country": "Brunei",
    "iso2": "BN",
    "iso3": "BRN",
    "admin_name": "Brunei dan Muara",
    "capital": "primary",
    "population": "50000",
    "id": "1096465895"
  },
  {
    "city": "Port-Vila",
    "city_ascii": "Port-Vila",
    "lat": "-17.7333",
    "lng": "168.3167",
    "country": "Vanuatu",
    "iso2": "VU",
    "iso3": "VUT",
    "admin_name": "Shefa",
    "capital": "primary",
    "population": "49034",
    "id": "1548805075"
  },
  {
    "city": "Apia",
    "city_ascii": "Apia",
    "lat": "-13.8333",
    "lng": "-171.7500",
    "country": "Samoa",
    "iso2": "WS",
    "iso3": "WSM",
    "admin_name": "Tuamasaga",
    "capital": "primary",
    "population": "37708",
    "id": "1882489296"
  },
  {
    "city": "Monaco",
    "city_ascii": "Monaco",
    "lat": "43.7333",
    "lng": "7.4167",
    "country": "Monaco",
    "iso2": "MC",
    "iso3": "MCO",
    "admin_name": "",
    "capital": "primary",
    "population": "36371",
    "id": "1492854256"
  },
  {
    "city": "Oranjestad",
    "city_ascii": "Oranjestad",
    "lat": "12.5186",
    "lng": "-70.0358",
    "country": "Aruba",
    "iso2": "AW",
    "iso3": "ABW",
    "admin_name": "",
    "capital": "primary",
    "population": "34980",
    "id": "1533513057"
  },
  {
    "city": "Gibraltar",
    "city_ascii": "Gibraltar",
    "lat": "36.1400",
    "lng": "-5.3500",
    "country": "Gibraltar",
    "iso2": "GI",
    "iso3": "GIB",
    "admin_name": "",
    "capital": "primary",
    "population": "34003",
    "id": "1292385245"
  },
  {
    "city": "Saint Helier",
    "city_ascii": "Saint Helier",
    "lat": "49.1858",
    "lng": "-2.1100",
    "country": "Jersey",
    "iso2": "JE",
    "iso3": "JEY",
    "admin_name": "",
    "capital": "primary",
    "population": "33522",
    "id": "1832490253"
  },
  {
    "city": "Majuro",
    "city_ascii": "Majuro",
    "lat": "7.0833",
    "lng": "171.3833",
    "country": "Marshall Islands",
    "iso2": "MH",
    "iso3": "MHL",
    "admin_name": "Majuro",
    "capital": "primary",
    "population": "30000",
    "id": "1584000000"
  },
  {
    "city": "Mutsamudu",
    "city_ascii": "Mutsamudu",
    "lat": "-12.1675",
    "lng": "44.3939",
    "country": "Comoros",
    "iso2": "KM",
    "iso3": "COM",
    "admin_name": "Anjouan",
    "capital": "admin",
    "population": "30000",
    "id": "1174036583"
  },
  {
    "city": "Tarawa",
    "city_ascii": "Tarawa",
    "lat": "1.3382",
    "lng": "173.0176",
    "country": "Kiribati",
    "iso2": "KI",
    "iso3": "KIR",
    "admin_name": "",
    "capital": "primary",
    "population": "28802",
    "id": "1296152641"
  },
  {
    "city": "Douglas",
    "city_ascii": "Douglas",
    "lat": "54.1500",
    "lng": "-4.4775",
    "country": "Isle of Man",
    "iso2": "IM",
    "iso3": "IMN",
    "admin_name": "",
    "capital": "primary",
    "population": "27938",
    "id": "1833688345"
  },
  {
    "city": "George Town",
    "city_ascii": "George Town",
    "lat": "19.2866",
    "lng": "-81.3744",
    "country": "Cayman Islands",
    "iso2": "KY",
    "iso3": "CYM",
    "admin_name": "",
    "capital": "primary",
    "population": "27704",
    "id": "1136159124"
  },
  {
    "city": "Victoria",
    "city_ascii": "Victoria",
    "lat": "-4.6231",
    "lng": "55.4525",
    "country": "Seychelles",
    "iso2": "SC",
    "iso3": "SYC",
    "admin_name": "Mont Buxton",
    "capital": "primary",
    "population": "24701",
    "id": "1690193579"
  },
  {
    "city": "Calliaqua",
    "city_ascii": "Calliaqua",
    "lat": "13.1308",
    "lng": "-61.1928",
    "country": "Saint Vincent and the Grenadines",
    "iso2": "VC",
    "iso3": "VCT",
    "admin_name": "Saint George",
    "capital": "",
    "population": "24205",
    "id": "1670040822"
  },
  {
    "city": "Nuku‘alofa",
    "city_ascii": "Nuku`alofa",
    "lat": "-21.1333",
    "lng": "-175.2000",
    "country": "Tonga",
    "iso2": "TO",
    "iso3": "TON",
    "admin_name": "Tongatapu",
    "capital": "primary",
    "population": "23221",
    "id": "1776737461"
  },
  {
    "city": "Andorra la Vella",
    "city_ascii": "Andorra la Vella",
    "lat": "42.5000",
    "lng": "1.5000",
    "country": "Andorra",
    "iso2": "AD",
    "iso3": "AND",
    "admin_name": "Andorra la Vella",
    "capital": "primary",
    "population": "22615",
    "id": "1020828846"
  },
  {
    "city": "Saint John’s",
    "city_ascii": "Saint John's",
    "lat": "17.1167",
    "lng": "-61.8500",
    "country": "Antigua and Barbuda",
    "iso2": "AG",
    "iso3": "ATG",
    "admin_name": "Saint John",
    "capital": "primary",
    "population": "22219",
    "id": "1028912067"
  },
  {
    "city": "Saint Peter Port",
    "city_ascii": "Saint Peter Port",
    "lat": "49.4555",
    "lng": "-2.5368",
    "country": "Guernsey",
    "iso2": "GG",
    "iso3": "GGY",
    "admin_name": "",
    "capital": "primary",
    "population": "18958",
    "id": "1831991870"
  },
  {
    "city": "Nuuk",
    "city_ascii": "Nuuk",
    "lat": "64.1814",
    "lng": "-51.6942",
    "country": "Greenland",
    "iso2": "GL",
    "iso3": "GRL",
    "admin_name": "Sermersooq",
    "capital": "primary",
    "population": "18326",
    "id": "1304028354"
  },
  {
    "city": "Roseau",
    "city_ascii": "Roseau",
    "lat": "15.3014",
    "lng": "-61.3883",
    "country": "Dominica",
    "iso2": "DM",
    "iso3": "DMA",
    "admin_name": "Saint George",
    "capital": "primary",
    "population": "14725",
    "id": "1212060440"
  },
  {
    "city": "Weno",
    "city_ascii": "Weno",
    "lat": "7.4417",
    "lng": "151.8583",
    "country": "Micronesia, Federated States of",
    "iso2": "FM",
    "iso3": "FSM",
    "admin_name": "Chuuk",
    "capital": "admin",
    "population": "13856",
    "id": "1583964118"
  },
  {
    "city": "Tórshavn",
    "city_ascii": "Torshavn",
    "lat": "62.0000",
    "lng": "-6.7833",
    "country": "Faroe Islands",
    "iso2": "FO",
    "iso3": "FRO",
    "admin_name": "Tórshavn",
    "capital": "primary",
    "population": "13326",
    "id": "1234904517"
  },
  {
    "city": "Basseterre",
    "city_ascii": "Basseterre",
    "lat": "17.3000",
    "lng": "-62.7333",
    "country": "Saint Kitts and Nevis",
    "iso2": "KN",
    "iso3": "KNA",
    "admin_name": "Saint George Basseterre",
    "capital": "primary",
    "population": "13220",
    "id": "1659198919"
  },
  {
    "city": "Road Town",
    "city_ascii": "Road Town",
    "lat": "18.4167",
    "lng": "-64.6167",
    "country": "Virgin Islands, British",
    "iso2": "VG",
    "iso3": "VGB",
    "admin_name": "",
    "capital": "primary",
    "population": "12603",
    "id": "1092732412"
  },
  {
    "city": "Pago Pago",
    "city_ascii": "Pago Pago",
    "lat": "-14.2740",
    "lng": "-170.7046",
    "country": "American Samoa",
    "iso2": "AS",
    "iso3": "ASM",
    "admin_name": "",
    "capital": "primary",
    "population": "12576",
    "id": "1016976740"
  },
  {
    "city": "Saint David’s",
    "city_ascii": "Saint David's",
    "lat": "12.0444",
    "lng": "-61.6806",
    "country": "Grenada",
    "iso2": "GD",
    "iso3": "GRD",
    "admin_name": "Saint David",
    "capital": "",
    "population": "12486",
    "id": "1308183777"
  },
  {
    "city": "Serravalle",
    "city_ascii": "Serravalle",
    "lat": "43.9717",
    "lng": "12.4817",
    "country": "San Marino",
    "iso2": "SM",
    "iso3": "SMR",
    "admin_name": "Serravalle",
    "capital": "admin",
    "population": "10878",
    "id": "1674000000"
  },
  {
    "city": "Kralendijk",
    "city_ascii": "Kralendijk",
    "lat": "12.1444",
    "lng": "-68.2656",
    "country": "Bonaire, Sint Eustatius, and Saba",
    "iso2": "BQ",
    "iso3": "BES",
    "admin_name": "Bonaire",
    "capital": "admin",
    "population": "10620",
    "id": "1528693863"
  },
  {
    "city": "Koror",
    "city_ascii": "Koror",
    "lat": "7.3419",
    "lng": "134.4792",
    "country": "Palau",
    "iso2": "PW",
    "iso3": "PLW",
    "admin_name": "Koror",
    "capital": "",
    "population": "8744",
    "id": "1585174728"
  },
  {
    "city": "Funafuti",
    "city_ascii": "Funafuti",
    "lat": "-8.5167",
    "lng": "179.2000",
    "country": "Tuvalu",
    "iso2": "TV",
    "iso3": "TUV",
    "admin_name": "Funafuti",
    "capital": "primary",
    "population": "6025",
    "id": "1798251391"
  },
  {
    "city": "Schaan",
    "city_ascii": "Schaan",
    "lat": "47.1667",
    "lng": "9.5097",
    "country": "Liechtenstein",
    "iso2": "LI",
    "iso3": "LIE",
    "admin_name": "Schaan",
    "capital": "admin",
    "population": "5998",
    "id": "1438982330"
  },
  {
    "city": "Marigot",
    "city_ascii": "Marigot",
    "lat": "18.0706",
    "lng": "-63.0847",
    "country": "Saint Martin",
    "iso2": "MF",
    "iso3": "MAF",
    "admin_name": "",
    "capital": "primary",
    "population": "5700",
    "id": "1663133172"
  },
  {
    "city": "Saint-Pierre",
    "city_ascii": "Saint-Pierre",
    "lat": "46.7778",
    "lng": "-56.1778",
    "country": "Saint Pierre and Miquelon",
    "iso2": "PM",
    "iso3": "SPM",
    "admin_name": "",
    "capital": "primary",
    "population": "5394",
    "id": "1666340272"
  },
  {
    "city": "Avarua",
    "city_ascii": "Avarua",
    "lat": "-21.2070",
    "lng": "-159.7710",
    "country": "Cook Islands",
    "iso2": "CK",
    "iso3": "COK",
    "admin_name": "",
    "capital": "primary",
    "population": "4009",
    "id": "1184217570"
  },
  {
    "city": "Grand Turk",
    "city_ascii": "Grand Turk",
    "lat": "21.4590",
    "lng": "-71.1390",
    "country": "Turks and Caicos Islands",
    "iso2": "TC",
    "iso3": "TCA",
    "admin_name": "",
    "capital": "primary",
    "population": "3700",
    "id": "1796965313"
  },
  {
    "city": "The Valley",
    "city_ascii": "The Valley",
    "lat": "18.2208",
    "lng": "-63.0517",
    "country": "Anguilla",
    "iso2": "AI",
    "iso3": "AIA",
    "admin_name": "",
    "capital": "primary",
    "population": "3269",
    "id": "1660698387"
  },
  {
    "city": "Capitol Hill",
    "city_ascii": "Capitol Hill",
    "lat": "15.2137",
    "lng": "145.7546",
    "country": "Northern Mariana Islands",
    "iso2": "MP",
    "iso3": "MNP",
    "admin_name": "",
    "capital": "primary",
    "population": "2500",
    "id": "1580556972"
  },
  {
    "city": "Gustavia",
    "city_ascii": "Gustavia",
    "lat": "17.8979",
    "lng": "-62.8506",
    "country": "Saint Barthelemy",
    "iso2": "BL",
    "iso3": "BLM",
    "admin_name": "",
    "capital": "primary",
    "population": "2300",
    "id": "1652681565"
  },
  {
    "city": "Stanley",
    "city_ascii": "Stanley",
    "lat": "-51.7000",
    "lng": "-57.8500",
    "country": "Falkland Islands (Islas Malvinas)",
    "iso2": "FK",
    "iso3": "FLK",
    "admin_name": "",
    "capital": "primary",
    "population": "2213",
    "id": "1238780509"
  },
  {
    "city": "Philipsburg",
    "city_ascii": "Philipsburg",
    "lat": "18.0237",
    "lng": "-63.0458",
    "country": "Sint Maarten",
    "iso2": "SX",
    "iso3": "SXM",
    "admin_name": "",
    "capital": "primary",
    "population": "1894",
    "id": "1534859858"
  },
  {
    "city": "Longyearbyen",
    "city_ascii": "Longyearbyen",
    "lat": "78.2200",
    "lng": "15.6500",
    "country": "Svalbard",
    "iso2": "XR",
    "iso3": "XSV",
    "admin_name": "",
    "capital": "primary",
    "population": "1753",
    "id": "1930654114"
  },
  {
    "city": "Flying Fish Cove",
    "city_ascii": "Flying Fish Cove",
    "lat": "-10.4261",
    "lng": "105.6728",
    "country": "Christmas Island",
    "iso2": "CX",
    "iso3": "CXR",
    "admin_name": "",
    "capital": "primary",
    "population": "1599",
    "id": "1162889600"
  },
  {
    "city": "Mata-Utu",
    "city_ascii": "Mata-Utu",
    "lat": "-13.2833",
    "lng": "-176.1833",
    "country": "Wallis and Futuna",
    "iso2": "WF",
    "iso3": "WLF",
    "admin_name": "Uvea",
    "capital": "primary",
    "population": "1029",
    "id": "1876784844"
  },
  {
    "city": "Hamilton",
    "city_ascii": "Hamilton",
    "lat": "32.2930",
    "lng": "-64.7820",
    "country": "Bermuda",
    "iso2": "BM",
    "iso3": "BMU",
    "admin_name": "Hamilton",
    "capital": "primary",
    "population": "854",
    "id": "1060000000"
  },
  {
    "city": "Vatican City",
    "city_ascii": "Vatican City",
    "lat": "41.9040",
    "lng": "12.4530",
    "country": "Vatican City",
    "iso2": "VA",
    "iso3": "VAT",
    "admin_name": "",
    "capital": "primary",
    "population": "825",
    "id": "1336000000"
  },
  {
    "city": "Yaren",
    "city_ascii": "Yaren",
    "lat": "-0.5477",
    "lng": "166.9209",
    "country": "Nauru",
    "iso2": "NR",
    "iso3": "NRU",
    "admin_name": "Yaren",
    "capital": "primary",
    "population": "747",
    "id": "1520790128"
  },
  {
    "city": "Jamestown",
    "city_ascii": "Jamestown",
    "lat": "-15.9251",
    "lng": "-5.7179",
    "country": "Saint Helena, Ascension, and Tristan da Cunha",
    "iso2": "SH",
    "iso3": "SHN",
    "admin_name": "Saint Helena",
    "capital": "primary",
    "population": "714",
    "id": "1654761576"
  },
  {
    "city": "Alofi",
    "city_ascii": "Alofi",
    "lat": "-19.0560",
    "lng": "-169.9210",
    "country": "Niue",
    "iso2": "NU",
    "iso3": "NIU",
    "admin_name": "",
    "capital": "primary",
    "population": "597",
    "id": "1570882835"
  },
  {
    "city": "Brades",
    "city_ascii": "Brades",
    "lat": "16.7928",
    "lng": "-62.2106",
    "country": "Montserrat",
    "iso2": "MS",
    "iso3": "MSR",
    "admin_name": "Saint Peter",
    "capital": "primary",
    "population": "391",
    "id": "1500971198"
  },
  {
    "city": "Kingston",
    "city_ascii": "Kingston",
    "lat": "-29.0606",
    "lng": "167.9619",
    "country": "Norfolk Island",
    "iso2": "NF",
    "iso3": "NFK",
    "admin_name": "",
    "capital": "primary",
    "population": "341",
    "id": "1574121434"
  },
  {
    "city": "Grytviken",
    "city_ascii": "Grytviken",
    "lat": "-54.2806",
    "lng": "-36.5080",
    "country": "South Georgia and South Sandwich Islands",
    "iso2": "GS",
    "iso3": "SGS",
    "admin_name": "",
    "capital": "",
    "population": "99",
    "id": "1239048837"
  },
  {
    "city": "Adamstown",
    "city_ascii": "Adamstown",
    "lat": "-25.0667",
    "lng": "-130.1000",
    "country": "Pitcairn Islands",
    "iso2": "PN",
    "iso3": "PCN",
    "admin_name": "",
    "capital": "primary",
    "population": "47",
    "id": "1612000000"
  },
  {
    "city": "King Edward Point",
    "city_ascii": "King Edward Point",
    "lat": "-54.2833",
    "lng": "-36.5000",
    "country": "South Georgia And South Sandwich Islands",
    "iso2": "GS",
    "iso3": "SGS",
    "admin_name": "",
    "capital": "primary",
    "population": "",
    "id": "1239048838"
  },
  {
    "city": "Charlotte Amalie",
    "city_ascii": "Charlotte Amalie",
    "lat": "18.3420",
    "lng": "-64.9331",
    "country": "U.S. Virgin Islands",
    "iso2": "VI",
    "iso3": "VIR",
    "admin_name": "Virgin Islands",
    "capital": "primary",
    "population": "",
    "id": "1850037473"
  }
]
