[{"city":"Tokyo","city_ascii":"Tokyo","lat":"35.6897","lng":"139.6922","country":"Japan","iso2":"JP","iso3":"JPN","admin_name":"Tōkyō","capital":"primary","population":"37732000","id":"1392685764"},{"city":"Ōsaka","city_ascii":"Osaka","lat":"34.6939","lng":"135.5022","country":"Japan","iso2":"JP","iso3":"JPN","admin_name":"Ōsaka","capital":"admin","population":"15126000","id":"1392419823"},{"city":"Nagoya","city_ascii":"Nagoya","lat":"35.1833","lng":"136.9000","country":"Japan","iso2":"JP","iso3":"JPN","admin_name":"Aichi","capital":"admin","population":"9197000","id":"1392407472"},{"city":"Jakarta","city_ascii":"Jakarta","lat":"-6.1750","lng":"106.8275","country":"Indonesia","iso2":"ID","iso3":"IDN","admin_name":"Jakarta","capital":"primary","population":"33756000","id":"1360771077"},{"city":"Surabaya","city_ascii":"Surabaya","lat":"-7.2458","lng":"112.7378","country":"Indonesia","iso2":"ID","iso3":"IDN","admin_name":"Jawa Timur","capital":"admin","population":"6998000","id":"1360484663"},{"city":"Delhi","city_ascii":"Delhi","lat":"28.6100","lng":"77.2300","country":"India","iso2":"IN","iso3":"IND","admin_name":"Delhi","capital":"admin","population":"32226000","id":"1356872604"},{"city":"Mumbai","city_ascii":"Mumbai","lat":"19.0761","lng":"72.8775","country":"India","iso2":"IN","iso3":"IND","admin_name":"Mahārāshtra","capital":"admin","population":"24973000","id":"1356226629"},{"city":"Kolkāta","city_ascii":"Kolkata","lat":"22.5675","lng":"88.3700","country":"India","iso2":"IN","iso3":"IND","admin_name":"West Bengal","capital":"admin","population":"18502000","id":"1356060520"},{"city":"Guangzhou","city_ascii":"Guangzhou","lat":"23.1300","lng":"113.2600","country":"China","iso2":"CN","iso3":"CHN","admin_name":"Guangdong","capital":"admin","population":"26940000","id":"1156237133"},{"city":"Shanghai","city_ascii":"Shanghai","lat":"31.2286","lng":"121.4747","country":"China","iso2":"CN","iso3":"CHN","admin_name":"Shanghai","capital":"admin","population":"24073000","id":"1156073548"},{"city":"Beijing","city_ascii":"Beijing","lat":"39.9067","lng":"116.3975","country":"China","iso2":"CN","iso3":"CHN","admin_name":"Beijing","capital":"primary","population":"18522000","id":"1156228865"},{"city":"Manila","city_ascii":"Manila","lat":"14.5958","lng":"120.9772","country":"Philippines","iso2":"PH","iso3":"PHL","admin_name":"Manila","capital":"primary","population":"24922000","id":"1608618140"},{"city":"São Paulo","city_ascii":"Sao Paulo","lat":"-23.5500","lng":"-46.6333","country":"Brazil","iso2":"BR","iso3":"BRA","admin_name":"São Paulo","capital":"admin","population":"23086000","id":"1076532519"},{"city":"Rio de Janeiro","city_ascii":"Rio de Janeiro","lat":"-22.9111","lng":"-43.2056","country":"Brazil","iso2":"BR","iso3":"BRA","admin_name":"Rio de Janeiro","capital":"admin","population":"12592000","id":"1076887657"},{"city":"Seoul","city_ascii":"Seoul","lat":"37.5600","lng":"126.9900","country":"Korea, South","iso2":"KR","iso3":"KOR","admin_name":"Seoul","capital":"primary","population":"23016000","id":"1410836482"},{"city":"Mexico City","city_ascii":"Mexico City","lat":"19.4333","lng":"-99.1333","country":"Mexico","iso2":"MX","iso3":"MEX","admin_name":"Ciudad de México","capital":"primary","population":"21804000","id":"1484247881"},{"city":"Cairo","city_ascii":"Cairo","lat":"30.0444","lng":"31.2358","country":"Egypt","iso2":"EG","iso3":"EGY","admin_name":"Al Qāhirah","capital":"primary","population":"20296000","id":"1818253931"},{"city":"New York","city_ascii":"New York","lat":"40.6943","lng":"-73.9249","country":"United States","iso2":"US","iso3":"USA","admin_name":"New York","capital":"","population":"18908608","id":"1840034016"},{"city":"Los Angeles","city_ascii":"Los Angeles","lat":"34.1141","lng":"-118.4068","country":"United States","iso2":"US","iso3":"USA","admin_name":"California","capital":"","population":"11922389","id":"1840020491"},{"city":"Chicago","city_ascii":"Chicago","lat":"41.8375","lng":"-87.6866","country":"United States","iso2":"US","iso3":"USA","admin_name":"Illinois","capital":"","population":"8497759","id":"1840000494"},{"city":"Dhaka","city_ascii":"Dhaka","lat":"23.7639","lng":"90.3889","country":"Bangladesh","iso2":"BD","iso3":"BGD","admin_name":"Dhaka","capital":"primary","population":"18627000","id":"1050529279"},{"city":"Chattogram","city_ascii":"Chattogram","lat":"22.3350","lng":"91.8325","country":"Bangladesh","iso2":"BD","iso3":"BGD","admin_name":"Chattogram","capital":"admin","population":"7000000","id":"1050830722"},{"city":"Bangkok","city_ascii":"Bangkok","lat":"13.7525","lng":"100.4942","country":"Thailand","iso2":"TH","iso3":"THA","admin_name":"Krung Thep Maha Nakhon","capital":"primary","population":"18007000","id":"1764068610"},{"city":"Moscow","city_ascii":"Moscow","lat":"55.7558","lng":"37.6172","country":"Russia","iso2":"RU","iso3":"RUS","admin_name":"Moskva","capital":"primary","population":"17332000","id":"1643318494"},{"city":"Buenos Aires","city_ascii":"Buenos Aires","lat":"-34.6033","lng":"-58.3817","country":"Argentina","iso2":"AR","iso3":"ARG","admin_name":"Buenos Aires, Ciudad Autónoma de","capital":"primary","population":"16710000","id":"1032717330"},{"city":"Lagos","city_ascii":"Lagos","lat":"6.4550","lng":"3.3841","country":"Nigeria","iso2":"NG","iso3":"NGA","admin_name":"Lagos","capital":"minor","population":"16637000","id":"1566593751"},{"city":"Istanbul","city_ascii":"Istanbul","lat":"41.0136","lng":"28.9550","country":"Turkey","iso2":"TR","iso3":"TUR","admin_name":"İstanbul","capital":"admin","population":"16079000","id":"1792756324"},{"city":"Karachi","city_ascii":"Karachi","lat":"24.8600","lng":"67.0100","country":"Pakistan","iso2":"PK","iso3":"PAK","admin_name":"Sindh","capital":"admin","population":"15738000","id":"1586129469"},{"city":"Lahore","city_ascii":"Lahore","lat":"31.5497","lng":"74.3436","country":"Pakistan","iso2":"PK","iso3":"PAK","admin_name":"Punjab","capital":"admin","population":"12306000","id":"1586801463"},{"city":"Ho Chi Minh City","city_ascii":"Ho Chi Minh City","lat":"10.7756","lng":"106.7019","country":"Vietnam","iso2":"VN","iso3":"VNM","admin_name":"Hồ Chí Minh","capital":"admin","population":"15136000","id":"1704774326"},{"city":"Hanoi","city_ascii":"Hanoi","lat":"21.0000","lng":"105.8500","country":"Vietnam","iso2":"VN","iso3":"VNM","admin_name":"Hà Nội","capital":"primary","population":"8246600","id":"1704413791"},{"city":"Tehran","city_ascii":"Tehran","lat":"35.6892","lng":"51.3889","country":"Iran","iso2":"IR","iso3":"IRN","admin_name":"Tehrān","capital":"primary","population":"14148000","id":"1364305026"},{"city":"Kinshasa","city_ascii":"Kinshasa","lat":"-4.3219","lng":"15.3119","country":"Congo (Kinshasa)","iso2":"CD","iso3":"COD","admin_name":"Kinshasa","capital":"primary","population":"12836000","id":"1180000363"},{"city":"London","city_ascii":"London","lat":"51.5072","lng":"-0.1275","country":"United Kingdom","iso2":"GB","iso3":"GBR","admin_name":"London, City of","capital":"primary","population":"11262000","id":"1826645935"},{"city":"Paris","city_ascii":"Paris","lat":"48.8567","lng":"2.3522","country":"France","iso2":"FR","iso3":"FRA","admin_name":"Île-de-France","capital":"primary","population":"11060000","id":"1250015082"},{"city":"Lima","city_ascii":"Lima","lat":"-12.0600","lng":"-77.0375","country":"Peru","iso2":"PE","iso3":"PER","admin_name":"Lima","capital":"primary","population":"10320000","id":"1604728603"},{"city":"Luanda","city_ascii":"Luanda","lat":"-8.8383","lng":"13.2344","country":"Angola","iso2":"AO","iso3":"AGO","admin_name":"Luanda","capital":"primary","population":"9051000","id":"1024949724"},{"city":"Kuala Lumpur","city_ascii":"Kuala Lumpur","lat":"3.1478","lng":"101.6953","country":"Malaysia","iso2":"MY","iso3":"MYS","admin_name":"Kuala Lumpur","capital":"primary","population":"8911000","id":"1458988644"},{"city":"Johannesburg","city_ascii":"Johannesburg","lat":"-26.2044","lng":"28.0456","country":"South Africa","iso2":"ZA","iso3":"ZAF","admin_name":"Gauteng","capital":"admin","population":"8500000","id":"1710550792"},{"city":"Bogotá","city_ascii":"Bogota","lat":"4.7111","lng":"-74.0722","country":"Colombia","iso2":"CO","iso3":"COL","admin_name":"Bogotá","capital":"primary","population":"7968095","id":"1170483426"},{"city":"Dar es Salaam","city_ascii":"Dar es Salaam","lat":"-6.8161","lng":"39.2803","country":"Tanzania","iso2":"TZ","iso3":"TZA","admin_name":"Dar es Salaam","capital":"admin","population":"7962000","id":"1834843853"},{"city":"Khartoum","city_ascii":"Khartoum","lat":"15.6000","lng":"32.5000","country":"Sudan","iso2":"SD","iso3":"SDN","admin_name":"Khartoum","capital":"primary","population":"7869000","id":"1729268475"},{"city":"Hong Kong","city_ascii":"Hong Kong","lat":"22.3000","lng":"114.2000","country":"Hong Kong","iso2":"HK","iso3":"HKG","admin_name":"","capital":"primary","population":"7450000","id":"1344982653"},{"city":"Riyadh","city_ascii":"Riyadh","lat":"24.6333","lng":"46.7167","country":"Saudi Arabia","iso2":"SA","iso3":"SAU","admin_name":"Ar Riyāḑ","capital":"primary","population":"7237000","id":"1682999334"},{"city":"Santiago","city_ascii":"Santiago","lat":"-33.4372","lng":"-70.6506","country":"Chile","iso2":"CL","iso3":"CHL","admin_name":"Región Metropolitana","capital":"primary","population":"7171000","id":"1152554349"},{"city":"Madrid","city_ascii":"Madrid","lat":"40.4169","lng":"-3.7033","country":"Spain","iso2":"ES","iso3":"ESP","admin_name":"Madrid","capital":"primary","population":"6211000","id":"1724616994"},{"city":"Baghdad","city_ascii":"Baghdad","lat":"33.3153","lng":"44.3661","country":"Iraq","iso2":"IQ","iso3":"IRQ","admin_name":"Baghdād","capital":"primary","population":"6183000","id":"1368596238"},{"city":"Singapore","city_ascii":"Singapore","lat":"1.3000","lng":"103.8000","country":"Singapore","iso2":"SG","iso3":"SGP","admin_name":"","capital":"primary","population":"5983000","id":"1702341327"},{"city":"Douala","city_ascii":"Douala","lat":"4.0500","lng":"9.7000","country":"Cameroon","iso2":"CM","iso3":"CMR","admin_name":"Littoral","capital":"admin","population":"5768400","id":"1120494607"}]